,City,Lat,Lng,Max Temp,Humidity,Cloudiness,Wind Speed,Country,Date
0,Lebu,-37.62,-73.65,285.35,80,89,0.43,CL,1589431718
1,Hobart,-42.88,147.33,289.15,51,20,6.2,AU,1589431718
2,Rikitea,-23.12,-134.97,298.6,84,0,4.2,PF,1589431643
3,Hilo,19.73,-155.09,300.15,61,1,4.1,US,1589431719
4,Redmond,47.67,-122.12,287.04,67,79,0.87,US,1589431682
5,Mazagão,-0.12,-51.29,299.15,100,75,2.1,BR,1589431720
6,Fare,-16.7,-151.02,301.15,76,10,6.49,PF,1589431720
7,Ushuaia,-54.8,-68.3,278.15,78,75,3.23,AR,1589431657
8,Dikson,73.51,80.55,270.54,93,23,4.62,RU,1589431722
9,Punta Arenas,-53.15,-70.92,277.15,70,75,3.6,CL,1589431723
10,Batouri,4.43,14.37,293.41,97,100,0.27,CM,1589431723
11,Hermanus,-34.42,19.23,287.52,75,0,2.7,ZA,1589431723
12,Yulara,-25.24,130.99,294.15,19,99,7.2,AU,1589431724
13,Bethel,41.37,-73.41,277.59,69,1,1.67,US,1589431724
14,Wau,7.7,28.0,299.13,75,82,2.86,SS,1589431725
15,Kumul,42.8,93.45,301.27,15,96,2.53,CN,1589431726
16,São Filipe,14.9,-24.5,294.69,80,10,5.79,CV,1589431726
17,Jamestown,42.1,-79.24,279.15,33,1,1.5,US,1589431727
18,Pangnirtung,66.15,-65.71,266.19,91,63,1.78,CA,1589431727
19,Mataura,-46.19,168.86,283.55,68,72,2.3,NZ,1589431727
20,Kaitangata,-46.28,169.85,286.48,56,89,6.71,NZ,1589431728
21,George Town,5.41,100.34,305.15,70,20,2.1,MY,1589431530
22,George,-33.96,22.46,284.15,87,0,2.1,ZA,1589431729
23,Burnie,-41.07,145.92,289.26,56,46,2.24,AU,1589431730
24,Saldanha,-33.01,17.94,283.15,87,0,1.5,ZA,1589431730
25,Tuktoyaktuk,69.45,-133.04,267.15,79,90,4.6,CA,1589431731
26,Aykhal,66.0,111.5,273.15,97,90,1.0,RU,1589431731
27,New Norfolk,-42.78,147.06,288.15,74,90,1.79,AU,1589431731
28,Port-Gentil,-0.72,8.78,299.96,85,100,3.47,GA,1589431732
29,Winton,37.39,-120.61,292.15,59,40,3.6,US,1589431732
30,Paamiut,61.99,-49.67,277.26,90,91,3.59,GL,1589431733
31,Kaohsiung City,22.62,120.31,305.15,55,75,5.7,TW,1589431716
32,Kapaa,22.08,-159.32,298.15,78,90,3.1,US,1589431734
33,Butaritari,3.07,172.79,301.86,77,13,5.35,KI,1589431734
34,Mikhaylovskoye,51.82,79.72,302.39,25,0,1.81,RU,1589431735
35,Palmer,42.16,-72.33,278.15,63,4,0.68,US,1589431735
36,Albany,42.6,-73.97,279.82,70,0,2.1,US,1589431504
37,Assiut,27.18,31.18,297.15,44,75,2.1,EG,1589431459
38,Vaini,-21.2,-175.2,299.15,78,75,4.6,TO,1589431737
39,Hualmay,-11.1,-77.61,292.03,86,38,4.85,PE,1589431737
40,Nanortalik,60.14,-45.24,276.96,92,62,1.71,GL,1589431737
41,Port Alfred,-33.59,26.89,289.26,76,30,1.34,ZA,1589431738
42,Krasnosel'kup,65.7,82.47,279.98,57,9,2.79,RU,1589431738
43,Tasiilaq,65.61,-37.64,270.15,100,5,1.5,GL,1589431739
44,Okha,53.57,142.95,274.75,93,100,5.56,RU,1589431739
45,Tshikapa,-6.42,20.8,295.11,91,98,0.83,CD,1589431739
46,Barrow,71.29,-156.79,268.15,79,1,9.8,US,1589431502
47,Atuona,-9.8,-139.03,300.75,78,66,7.19,PF,1589431740
48,Verkhnevilyuysk,63.45,120.32,279.77,61,95,3.57,RU,1589431741
49,Vila Velha,-20.33,-40.29,296.15,83,35,4.1,BR,1589431452
50,Ponta do Sol,32.67,-17.1,289.15,59,40,6.2,PT,1589431742
51,Isangel,-19.55,169.27,299.15,57,75,2.6,VU,1589431742
52,Port Hardy,50.7,-127.42,286.15,66,75,2.1,CA,1589431742
53,Cabo San Lucas,22.89,-109.91,295.93,61,0,6.92,MX,1589431743
54,Chui,-33.7,-53.46,282.5,90,1,3.46,UY,1589431743
55,Taman',45.21,36.72,284.82,81,43,2.0,RU,1589431744
56,Pisco,-13.7,-76.22,292.15,82,61,5.7,PE,1589431594
57,Menongue,-14.66,17.69,285.52,58,8,1.15,AO,1589431745
58,Souillac,-20.52,57.52,297.15,78,75,5.7,MU,1589431745
59,Mar del Plata,-38.0,-57.56,283.71,86,40,2.1,AR,1589431746
60,Avarua,-21.21,-159.78,299.15,94,1,2.1,CK,1589431747
61,Bekhteyevka,50.81,37.21,281.15,65,81,2.0,RU,1589431747
62,Lala,7.97,123.75,304.87,70,100,0.7,PH,1589431747
63,Mareeba,-17.0,145.43,298.15,75,24,3.13,AU,1589431748
64,Klaksvík,62.23,-6.59,275.15,76,92,0.5,FO,1589431749
65,Saint-Pierre,-21.34,55.48,298.15,50,45,2.6,RE,1589431749
66,Tarakan,3.3,117.63,302.16,75,51,2.62,ID,1589431750
67,Salalah,17.02,54.09,302.15,70,0,3.1,OM,1589431750
68,Busselton,-33.65,115.33,298.71,37,0,2.2,AU,1589431750
69,Bluff,-46.6,168.33,284.8,71,84,8.69,NZ,1589431751
70,Iracoubo,5.48,-53.2,298.64,87,99,4.53,GF,1589431752
71,Nabire,-3.37,135.48,304.84,59,45,3.44,ID,1589431680
72,Dārāb,28.75,54.54,299.54,15,0,1.56,IR,1589431752
73,Port Blair,11.67,92.75,299.8,88,100,6.35,IN,1589431753
74,Cap Malheureux,-19.98,57.61,298.71,67,85,3.58,MU,1589431753
75,Pangody,65.85,74.49,283.59,54,97,8.89,RU,1589431754
76,Ribeira Grande,38.52,-28.7,287.83,70,64,2.6,PT,1589431754
77,Saskylakh,71.92,114.08,273.52,96,93,4.44,RU,1589431755
78,Erdenet,49.03,104.08,292.05,29,78,7.75,MN,1589431504
79,Esperance,-33.87,121.9,297.15,31,0,3.6,AU,1589431756
80,Katsuura,35.13,140.3,298.71,47,75,9.3,JP,1589431757
81,Oktyabr'skoye,43.06,44.74,285.15,76,75,2.0,RU,1589431757
82,Broken Hill,-31.95,141.43,286.15,47,75,4.6,AU,1589431758
83,Tavda,58.04,65.27,296.85,39,96,0.34,RU,1589431758
84,Kiunga,-6.12,141.29,300.37,87,94,0.79,PG,1589431759
85,Port Elizabeth,-33.92,25.57,288.15,77,0,4.1,ZA,1589431759
86,Shimanovsk,52.0,127.7,289.51,35,100,9.1,RU,1589431759
87,Fortuna,40.6,-124.16,286.48,87,90,2.6,US,1589431760
88,Oranjemund,-28.55,16.43,287.01,48,1,1.91,NA,1589431761
89,Pachino,36.72,15.09,293.71,69,99,3.13,IT,1589431761
90,Severo-Kuril'sk,50.68,156.12,277.37,75,82,7.5,RU,1589431762
91,San Cristobal,7.77,-72.22,292.2,87,96,0.99,VE,1589431495
92,Ust-Nera,64.57,143.2,280.84,57,30,1.27,RU,1589431762
93,Norwich,52.63,1.3,280.93,80,11,1.0,GB,1589431763
94,Marawi,8.0,124.29,301.48,82,100,0.45,PH,1589431763
95,Qaanaaq,77.48,-69.36,273.9,82,25,1.61,GL,1589431764
96,Mahébourg,-20.41,57.7,297.15,78,75,5.7,MU,1589431764
97,Guarapari,-20.67,-40.5,296.15,83,19,4.1,BR,1589431765
98,Hasaki,35.73,140.83,302.04,27,75,6.2,JP,1589431765
99,Lüderitz,-26.65,15.16,288.15,54,0,2.6,NA,1589431766
100,Whitehorse,60.72,-135.05,282.15,81,90,3.6,CA,1589431541
101,Puerto Peñasco,31.32,-113.53,297.04,69,22,4.47,MX,1589431766
102,Harper,4.38,-7.72,299.9,83,12,1.94,LR,1589431767
103,Ancud,-41.87,-73.82,284.82,100,90,7.2,CL,1589431767
104,Nhulunbuy,-12.23,136.77,302.15,66,75,6.2,AU,1589431719
105,Barão de Melgaço,-16.19,-55.97,296.15,88,75,0.5,BR,1589431768
106,Thompson,55.74,-97.86,278.15,60,40,4.1,CA,1589431769
107,Chapais,49.78,-74.85,270.15,63,1,1.54,CA,1589431769
108,Aksu,41.12,80.26,302.02,16,0,3.76,CN,1589431770
109,Faanui,-16.48,-151.75,300.84,77,0,6.83,PF,1589431771
110,Muyezerskiy,63.93,31.65,275.95,78,49,3.73,RU,1589431771
111,Lavrentiya,65.58,-171.0,274.54,97,100,2.86,RU,1589431771
112,Igrim,63.19,64.42,293.39,42,14,4.57,RU,1589431772
113,Terrassa,41.57,2.02,289.15,82,75,1.5,ES,1589431772
114,Nikolskoye,59.7,30.79,277.04,93,75,3.0,RU,1589431773
115,Farafangana,-22.82,47.83,294.88,89,9,3.38,MG,1589431773
116,East London,-33.02,27.91,290.15,59,9,4.6,ZA,1589431774
117,Kurumkan,54.3,110.3,280.18,50,83,1.11,RU,1589431774
118,Bontang,0.13,117.5,304.11,63,30,2.86,ID,1589431775
119,Hithadhoo,-0.6,73.08,301.76,78,92,7.82,MV,1589431776
120,Båtsfjord,70.63,29.72,274.15,86,75,9.8,NO,1589431776
121,Atar,20.52,-13.05,296.28,25,0,4.48,MR,1589431777
122,Olinda,-8.01,-34.86,298.15,94,40,1.5,BR,1589431777
123,Glenwood Springs,39.55,-107.32,290.15,47,75,7.2,US,1589431687
124,Dalvik,65.97,-18.53,277.15,86,90,3.6,IS,1589431778
125,Matadi,-5.82,13.45,298.16,91,91,0.34,CD,1589431779
126,Barwāni,22.03,74.9,311.48,24,0,3.3,IN,1589431779
127,Arica,-18.48,-70.3,290.49,81,99,0.96,CL,1589431780
128,Matiri,-10.75,34.9,290.18,95,68,1.1,TZ,1589431780
129,Rizhao,35.43,119.46,289.14,78,100,4.06,CN,1589431781
130,Usinsk,65.99,57.53,285.45,81,59,7.38,RU,1589431781
131,Bahía Blanca,-38.72,-62.27,280.46,66,10,3.38,AR,1589431782
132,Dudinka,69.41,86.18,275.15,69,0,6.0,RU,1589431783
133,Talnakh,69.49,88.4,275.15,69,0,6.0,RU,1589431783
134,Saint-Philippe,-21.36,55.77,298.15,50,37,2.6,RE,1589431783
135,Ilulissat,69.22,-51.1,274.15,86,11,2.1,GL,1589431784
136,Hong Kong,22.29,114.16,299.26,93,96,0.45,HK,1589431686
137,Karratha,-20.74,116.85,303.73,13,8,6.92,AU,1589431785
138,Egvekinot,66.32,-179.17,273.17,99,92,3.47,RU,1589431785
139,Ahipara,-35.17,173.17,290.1,73,63,2.62,NZ,1589431786
140,Khatanga,71.97,102.5,272.83,99,100,3.75,RU,1589431787
141,Taoudenni,22.68,-3.98,301.12,15,0,4.94,ML,1589431787
142,Pevek,69.7,170.31,273.14,97,96,1.23,RU,1589431787
143,Nouadhibou,20.93,-17.03,292.15,82,0,10.3,MR,1589431710
144,Samarai,-10.62,150.67,300.58,76,14,2.99,PG,1589431788
145,Longyearbyen,78.22,15.64,275.15,69,40,13.4,SJ,1589431543
146,Huarmey,-10.07,-78.15,292.92,84,15,4.55,PE,1589431789
147,Dwārka,22.24,68.97,302.92,67,0,4.74,IN,1589431790
148,Weyburn,49.67,-103.85,281.04,72,73,2.23,CA,1589431790
149,Auki,-8.77,160.7,302.53,72,96,0.6,SB,1589431790
150,Tiksi,71.69,128.87,273.51,96,100,2.26,RU,1589431791
151,Sulangan,11.14,123.72,302.77,76,100,5.7,PH,1589431791
152,Fort Nelson,58.81,-122.7,273.15,93,90,2.1,CA,1589431537
153,Quatre Cocos,-20.21,57.76,298.71,78,75,5.7,MU,1589431793
154,Coroico,-16.19,-67.73,276.15,34,100,2.1,BO,1589431793
155,Srednekolymsk,67.45,153.68,285.56,51,0,3.68,RU,1589431794
156,Kamenka,51.32,42.77,282.59,72,56,0.89,RU,1589431794
157,Yellowknife,62.46,-114.35,268.15,62,75,8.2,CA,1589431562
158,Castro,-24.79,-50.01,288.63,93,66,1.94,BR,1589431795
159,Griffith,41.53,-87.42,289.15,62,90,5.21,US,1589431526
160,Şuraabad,40.82,49.47,295.15,53,29,9.3,AZ,1589431796
161,Cairns,-16.92,145.77,299.15,74,90,5.7,AU,1589431796
162,Les Cayes,18.2,-73.75,297.97,82,0,1.51,HT,1589431797
163,Moose Factory,51.26,-80.61,279.15,35,1,3.1,CA,1589431797
164,Tarnogskiy Gorodok,60.5,43.58,280.18,63,0,4.11,RU,1589431797
165,Kalat,29.02,66.59,292.47,30,40,1.61,PK,1589431798
166,Kailua,21.4,-157.74,300.15,65,20,3.1,US,1589431798
167,Geraldton,-28.77,114.6,304.15,10,0,6.7,AU,1589431799
168,Nome,64.5,-165.41,285.15,54,75,7.7,US,1589431799
169,Half Moon Bay,37.46,-122.43,289.15,100,90,1.46,US,1589431549
170,Maxixe,-23.86,35.35,291.15,93,20,2.45,MZ,1589431800
171,Vostok,46.49,135.88,289.21,34,0,2.7,RU,1589431801
172,Conde,-7.26,-34.91,297.15,100,75,1.0,BR,1589431801
173,Mendoza,-32.89,-68.83,280.15,70,0,1.5,AR,1589431670
174,Atlantic City,39.36,-74.42,284.26,81,1,2.23,US,1589431802
175,Eenhana,-17.47,16.33,294.15,52,47,2.1,NA,1589431802
176,Ambanja,-13.68,48.45,298.09,83,86,0.79,MG,1589431803
177,San Quintín,30.48,-115.95,289.5,78,21,7.74,MX,1589431803
178,Kiryat Gat,31.61,34.76,296.48,90,80,2.88,IL,1589431620
179,Torbay,47.67,-52.73,275.37,86,75,9.3,CA,1589431804
180,Lao Cai,22.48,103.95,308.55,37,41,1.06,VN,1589431804
181,Hluti,-27.22,31.62,288.15,93,40,0.5,SZ,1589431805
182,Yarmouth,41.71,-70.23,281.15,52,1,3.6,US,1589431806
183,Lagoa,39.05,-27.98,287.37,70,16,5.76,PT,1589431806
184,Alofi,-19.06,-169.92,300.15,94,16,3.1,NU,1589431807
185,Padang,-0.95,100.35,303.68,69,94,2.26,ID,1589431807
186,Tateyama,34.98,139.87,297.04,56,20,8.2,JP,1589431808
187,Fernley,39.61,-119.25,285.37,42,100,0.89,US,1589431808
188,Puerto Ayora,-0.74,-90.35,297.59,93,59,1.79,EC,1589431808
189,Boa Vista,2.82,-60.67,297.15,94,75,0.5,BR,1589431775
190,Metro,-5.11,105.31,303.23,73,63,2.94,ID,1589431809
191,Tual,-5.67,132.75,299.97,86,100,8.67,ID,1589431810
192,Okhotsk,59.38,143.3,278.0,77,89,0.1,RU,1589431810
193,St. George's,12.06,-61.75,299.03,79,29,6.22,GD,1589431811
194,Khandyga,62.67,135.6,282.95,63,100,2.07,RU,1589431811
195,Upernavik,72.79,-56.15,274.38,90,98,1.34,GL,1589431812
196,Kaihua,23.37,104.28,300.85,43,16,6.59,CN,1589431812
197,Nānākuli,21.39,-158.15,300.15,73,90,0.73,US,1589431813
198,Lorengau,-2.02,147.27,303.35,70,13,3.87,PG,1589431813
199,Kahului,20.89,-156.47,299.15,65,40,6.2,US,1589431813
200,Natá,8.33,-80.52,299.15,83,39,0.81,PA,1589431814
201,Yeppoon,-23.13,150.73,300.15,42,75,3.6,AU,1589431815
202,Nizwá,22.93,57.53,304.22,14,0,1.38,OM,1589431815
203,Araouane,18.9,-3.53,301.89,15,0,5.41,ML,1589431816
204,Borovskoy,53.8,64.15,287.5,82,100,4.91,KZ,1589431816
205,Ekhabi,53.51,142.97,275.03,92,100,5.51,RU,1589431816
206,Rongcheng,30.63,117.85,298.71,91,98,3.45,CN,1589431817
207,Carnarvon,-24.87,113.63,301.67,23,0,0.23,AU,1589431818
208,Ixtapa,20.7,-105.2,293.63,57,21,1.21,MX,1589431818
209,Ontario,34.06,-117.65,291.15,52,20,3.6,US,1589431819
210,Kavieng,-2.57,150.8,302.69,71,17,2.05,PG,1589431819
211,Saint-Augustin,51.23,-58.65,275.34,97,100,2.85,CA,1589431820
212,Esim,4.87,-2.24,299.49,83,12,0.9,GH,1589431820
213,Mountain Home,43.13,-115.69,285.15,37,20,1.5,US,1589431821
214,Anadyr,64.75,177.48,277.15,64,75,2.0,RU,1589431821
215,Shingū,33.73,135.98,297.15,29,75,3.1,JP,1589431822
216,Smolenka,52.14,113.5,282.15,18,52,5.0,RU,1589431822
217,Lompoc,34.64,-120.46,288.15,87,90,5.1,US,1589431822
218,Inhambane,-23.86,35.38,291.15,93,20,2.74,MZ,1589431823
219,Key West,24.56,-81.78,299.15,88,90,7.7,US,1589431673
220,Natal,-5.79,-35.21,297.15,94,11,2.1,BR,1589431824
221,Bhainsdehi,21.65,77.63,305.99,24,84,1.64,IN,1589431824
222,Ust'-Uda,54.17,103.03,275.82,90,100,4.88,RU,1589431825
223,Chokurdakh,70.63,147.92,274.33,97,21,3.88,RU,1589431826
224,São Domingos do Prata,-19.86,-42.97,289.72,94,33,0.91,BR,1589431826
225,Yichang,30.71,111.28,293.81,78,100,1.56,CN,1589431826
226,Ascension,30.22,-90.9,296.48,88,27,3.82,US,1589431827
227,La Victoria,10.22,-67.33,299.15,74,40,1.59,VE,1589431814
228,Anito,12.45,125.29,300.39,87,100,14.24,PH,1589431829
229,Tahoua,14.89,5.27,303.15,45,0,2.82,NE,1589431829
230,Gisborne,-38.65,178.0,287.04,87,100,0.89,NZ,1589431659
231,Omboué,-1.57,9.26,297.57,93,100,2.27,GA,1589431830
232,Garmsār,35.22,52.34,296.18,20,1,3.42,IR,1589431830
233,Surat Thani,9.14,99.33,307.04,66,20,3.6,TH,1589431831
234,Santa Cruz de la Sierra,-17.8,-63.17,295.15,60,75,7.2,BO,1589431443
235,Kem',64.96,34.58,276.72,73,100,7.11,RU,1589431832
236,Ilhéus,-14.79,-39.05,294.85,88,32,1.53,BR,1589431832
237,San Patricio,19.22,-104.7,294.53,74,1,1.2,MX,1589431833
238,Puerto Escondido,15.85,-97.07,301.78,72,2,1.67,MX,1589431833
239,Cayenne,4.93,-52.33,298.15,100,75,4.74,GF,1589431833
240,Petropavlovsk-Kamchatskiy,53.05,158.65,285.15,40,0,5.0,RU,1589431834
241,Oistins,13.07,-59.53,299.15,69,40,7.2,BB,1589431605
242,Cape Town,-33.93,18.42,282.15,100,0,0.5,ZA,1589431665
243,Port Hedland,-20.32,118.57,305.15,8,0,6.2,AU,1589431836
244,Paducah,37.08,-88.6,289.26,93,40,2.1,US,1589431539
245,Kruisfontein,-34.0,24.73,285.15,76,0,3.09,ZA,1589431836
246,Shāhpur,16.7,76.83,309.66,25,0,2.47,IN,1589431837
247,Goderich,43.75,-81.72,279.26,55,100,4.65,CA,1589431837
248,Arraial do Cabo,-22.97,-42.03,296.54,82,84,5.93,BR,1589431806
249,Makakilo City,21.35,-158.09,300.15,73,90,1.62,US,1589431838
250,Saint Paul Harbor,57.79,-152.41,285.15,54,75,2.6,US,1589431616
251,Aklavik,68.22,-135.01,268.15,62,90,3.1,CA,1589431839
252,Rexburg,43.83,-111.79,284.15,53,75,7.7,US,1589431840
253,Chalmette,29.94,-89.96,297.59,83,75,2.1,US,1589431840
254,Fomboni,-12.28,43.74,300.29,76,100,6.11,KM,1589431841
255,Tuatapere,-46.13,167.68,282.58,79,62,2.1,NZ,1589431804
256,Guerrero Negro,27.98,-114.06,290.04,73,47,8.33,MX,1589431842
257,Arrifes,37.77,-25.7,286.15,66,40,4.6,PT,1589431842
258,Sydney,-33.87,151.21,290.15,67,40,8.7,AU,1589431802
259,Yangambi,0.81,24.43,294.48,98,100,0.47,CD,1589431843
260,Chiang Klang,19.29,100.86,306.15,52,52,2.1,TH,1589431844
261,Mercedes,-34.65,-59.43,280.93,98,0,2.45,AR,1589431844
262,São Sebastião,-23.76,-45.41,295.88,73,100,1.52,BR,1589431845
263,Makubetsu,45.37,141.82,282.15,87,75,5.7,JP,1589431846
264,Tolmezzo,46.41,13.02,287.59,82,20,2.1,IT,1589431846
265,Jimma,7.67,36.83,292.61,73,26,0.39,ET,1589431847
266,Huicungo,-7.28,-76.8,294.6,94,100,0.67,PE,1589431847
267,Mandera,3.94,41.87,300.48,64,82,5.0,KE,1589431848
268,Tuy Hoa,13.08,109.3,304.52,60,75,3.58,VN,1589431848
269,Ternate,0.8,127.4,303.18,71,4,2.42,ID,1589431849
270,Olafsvik,64.89,-23.71,279.39,95,91,4.53,IS,1589431849
271,Uglegorskiy,48.24,41.25,283.95,58,53,0.88,RU,1589431850
272,Marsh Harbour,26.54,-77.06,296.06,78,95,11.31,BS,1589431850
273,Amapá,1.0,-52.0,295.49,98,100,0.83,BR,1589431850
274,Mount Isa,-20.73,139.5,302.15,21,0,3.1,AU,1589431851
275,Bredasdorp,-34.53,20.04,282.15,87,0,2.6,ZA,1589431851
276,Bambanglipuro,-7.95,110.28,302.6,70,68,8.15,ID,1589431852
277,Gwanda,-20.93,29.0,284.5,45,0,2.64,ZW,1589431852
278,Lakes Entrance,-37.88,147.98,289.26,49,0,0.45,AU,1589431853
279,Vardø,70.37,31.11,274.15,86,75,9.8,NO,1589431853
280,Ailigandí,9.23,-78.02,300.12,82,97,2.0,PA,1589431854
281,Viedma,-40.81,-63.0,279.81,62,39,4.78,AR,1589431854
282,Acarí,-15.43,-74.62,293.42,69,58,2.07,PE,1589431854
283,Shenjiamen,29.96,122.3,293.13,83,56,9.74,CN,1589431855
284,Berbérati,4.26,15.79,293.52,99,97,0.87,CF,1589431855
285,Grand Gaube,-20.01,57.66,298.71,67,86,3.58,MU,1589431856
286,Meulaboh,4.14,96.13,304.21,62,99,2.01,ID,1589431856
287,Kamaishi,39.27,141.88,293.15,28,40,6.2,JP,1589431857
288,Bukachacha,52.98,116.92,282.24,44,100,5.93,RU,1589431857
289,Marzuq,14.4,46.47,302.3,21,1,1.85,YE,1589431858
290,Kelo,9.31,15.81,300.75,65,75,2.47,TD,1589431858
291,Constitución,-35.33,-72.42,285.48,62,62,2.47,CL,1589431859
292,Vyyezdnoye,55.38,43.79,282.3,60,1,4.17,RU,1589431860
293,Los Llanos de Aridane,28.66,-17.92,291.15,59,56,2.6,ES,1589431860
294,Aksay,47.26,39.87,282.15,66,20,2.0,RU,1589431860
295,Trairi,-3.28,-39.27,296.93,94,17,2.14,BR,1589431861
296,Georgiyevka,43.04,74.71,292.15,72,75,3.0,KZ,1589431623
297,Polonnaruwa,7.93,81.0,305.37,58,40,1.97,LK,1589431862
298,Yar-Sale,66.83,70.83,279.15,82,86,7.66,RU,1589431862
299,Monrovia,6.3,-10.8,300.18,83,54,1.25,LR,1589431863
300,Laas,46.62,10.7,280.15,93,75,2.6,IT,1589431863
301,Hofn,64.25,-15.21,279.15,63,1,5.03,IS,1589431863
302,Philadelphia,39.95,-75.16,285.93,58,1,2.1,US,1589431779
303,Baruun-Urt,46.68,113.28,290.52,31,0,1.98,MN,1589431864
304,Buala,-8.14,159.59,302.49,73,100,2.16,SB,1589431865
305,Chicama,-7.84,-79.15,293.89,80,52,2.85,PE,1589431865
306,Loa Janan,-0.58,117.09,302.79,87,50,1.48,ID,1589431866
307,Naze,28.37,129.48,299.15,64,40,3.1,JP,1589431866
308,Banda Aceh,5.56,95.32,303.39,71,79,2.05,ID,1589431866
309,Berlevåg,70.86,29.09,273.7,95,100,12.26,NO,1589431867
310,Bambous Virieux,-20.34,57.76,298.71,78,75,5.7,MU,1589431867
311,Gangāpur,26.48,76.72,312.07,16,0,3.69,IN,1589431868
312,Santo André,-23.66,-46.54,292.59,68,89,1.5,BR,1589431869
313,Cuamba,-14.8,36.54,292.18,70,0,0.65,MZ,1589431869
314,Arkhangel’skoye,55.85,35.33,277.67,91,72,4.82,RU,1589431870
315,Severo-Yeniseyskiy,60.37,93.04,280.21,54,16,3.74,RU,1589431870
316,Saint George,37.1,-113.58,294.15,22,1,1.01,US,1589431870
317,Wamba,8.93,8.6,297.38,83,24,1.03,NG,1589431848
318,Kashgar,39.45,75.98,298.15,20,68,6.0,CN,1589431871
319,Valdivia,-39.81,-73.25,283.76,85,100,0.48,CL,1589431872
320,Sakakah,29.97,40.21,298.15,13,67,2.1,SA,1589431872
321,Saint-François,46.42,3.91,282.59,87,90,2.1,FR,1589431873
322,Broome,42.25,-75.83,274.82,41,20,0.75,US,1589431873
323,Yangi Marg`ilon,40.43,71.72,291.15,59,40,4.1,UZ,1589431873
324,Lyubim,58.36,40.68,277.89,92,94,4.11,RU,1589431874
325,Pacific Grove,36.62,-121.92,289.15,77,90,1.5,US,1589431722
326,Bengkulu,-3.8,102.27,303.68,67,46,2.85,ID,1589431875
327,Aasiaat,68.71,-52.87,274.01,93,51,3.39,GL,1589431876
328,Safi,32.3,-9.24,289.74,73,41,9.4,MA,1589431877
329,Hwange,-18.37,26.5,286.16,39,0,1.31,ZW,1589431877
330,Cidreira,-30.18,-50.21,288.75,81,65,5.44,BR,1589431877
331,Moundou,8.57,16.08,298.59,71,96,2.21,TD,1589431878
332,Nuuk,64.18,-51.72,274.15,100,100,4.1,GL,1589431878
333,Lagdo,9.05,13.73,300.56,64,8,1.19,CM,1589431879
334,Rocha,-34.48,-54.33,282.49,92,11,3.12,UY,1589431586
335,Forest Hills,42.96,-85.49,286.15,57,90,6.7,US,1589431880
336,Tiznit Province,29.58,-9.5,285.2,77,67,1.9,MA,1589431880
337,Roseburg,43.22,-123.34,284.15,87,90,2.1,US,1589431881
338,Touros,-5.2,-35.46,297.15,94,24,2.1,BR,1589431881
339,Gamba,-2.65,10.0,298.15,91,100,1.69,GA,1589431881
340,Shar,49.59,81.05,300.23,29,0,6.14,KZ,1589431882
341,Matara,5.95,80.54,304.65,66,59,3.29,LK,1589431882
342,Portmore,17.97,-76.87,302.15,70,20,4.6,JM,1589431883
343,Nanchang,28.68,115.88,301.71,67,100,4.51,CN,1589431720
344,São Bartolomeu de Messines,37.26,-8.29,288.15,87,75,6.7,PT,1589431884
345,Bubaque,11.28,-15.83,299.18,71,93,3.18,GW,1589431884
346,Sambava,-14.27,50.17,297.62,72,55,3.88,MG,1589431885
347,Laguna,38.42,-121.42,289.15,77,75,4.1,US,1589431419
348,Maceió,-9.67,-35.74,296.15,94,40,1.0,BR,1589431885
349,Beyneu,45.32,55.2,293.77,39,95,2.66,KZ,1589431886
350,Bathsheba,13.22,-59.52,299.15,69,40,7.2,BB,1589431886
351,North Bend,43.41,-124.22,285.37,93,90,4.1,US,1589431887
352,Zaraza,9.35,-65.32,297.33,83,71,1.72,VE,1589431887
353,Bonthe,7.53,-12.51,299.82,84,30,1.62,SL,1589431888
354,Korla,41.76,86.15,301.04,15,60,4.5,CN,1589431888
355,Gorontalo,0.54,123.06,303.79,74,9,2.22,ID,1589431888
356,Belyy Yar,53.6,91.39,292.15,55,74,8.0,RU,1589431889
357,Provideniya,64.38,-173.3,277.15,75,100,6.0,RU,1589431889
358,Lichinga,-13.31,35.24,289.47,86,0,1.27,MZ,1589431890
359,Puerto Ayacucho,5.66,-67.62,297.71,92,100,1.97,VE,1589431890
360,Ossora,59.24,163.07,275.41,88,1,0.67,RU,1589431891
361,Saint-Raphaël,19.43,-72.2,295.84,89,90,1.7,HT,1589431891
362,Grandview,38.89,-94.53,290.37,88,90,5.7,US,1589431892
363,Robertson,36.52,-86.87,288.71,93,40,2.6,US,1589431892
364,Socorro,31.65,-106.3,301.15,13,1,7.2,US,1589431893
365,Gezing,47.92,13.13,281.15,100,75,3.6,AT,1589431893
366,Athabasca,54.72,-113.29,282.17,51,68,3.48,CA,1589431894
367,Valparaíso,-33.04,-71.63,282.15,87,67,4.0,CL,1589431438
368,Necochea,-38.55,-58.74,281.44,67,21,0.84,AR,1589431880
369,Bud,39.45,-86.18,285.93,91,99,3.65,US,1589431895
370,Bandarbeyla,9.49,50.81,302.94,74,88,6.42,SO,1589431896
371,Harlingen,26.19,-97.7,299.82,83,1,5.7,US,1589431795
372,Irupi,-20.35,-41.64,289.06,91,37,1.4,BR,1589431896
373,Bakel,14.9,-12.46,302.86,18,47,1.75,SN,1589431897
374,College,64.86,-147.8,287.15,26,40,9.8,US,1589431898
375,Sørland,67.67,12.69,275.15,69,40,1.5,NO,1589431899
376,Kimbe,-5.55,150.14,303.5,74,58,1.92,PG,1589431900
377,Mahon,39.89,4.27,288.15,93,20,2.1,ES,1589431826
378,Belaya Gora,68.53,146.42,280.72,73,100,2.11,RU,1589431901
379,Nyurba,63.28,118.33,279.6,60,98,2.99,RU,1589431901
380,Hereford,52.06,-2.71,275.37,87,0,2.09,GB,1589431902
381,Champasak,14.75,106.0,307.15,56,40,3.1,LA,1589431902
382,Nishihara,26.18,127.76,300.15,65,75,6.2,JP,1589431903
383,Ikryanoye,46.09,47.73,286.15,50,42,7.0,RU,1589431903
384,Rio Grande,-32.03,-52.1,283.71,96,0,0.45,BR,1589431715
385,Shelburne,44.08,-80.2,275.93,80,1,1.75,CA,1589431904
386,Haines Junction,60.75,-137.51,283.46,75,100,0.2,CA,1589431905
387,Prata,-19.31,-48.92,291.71,94,100,1.36,BR,1589431905
388,Peace River,56.25,-117.29,278.15,65,90,13.4,CA,1589431905
389,Talaya,61.38,152.75,280.79,55,0,1.13,RU,1589431906
390,Palmas,-10.21,-48.36,297.15,88,0,1.5,BR,1589431906
391,Sampit,-2.53,112.95,305.45,70,78,0.74,ID,1589431907
392,Cherskiy,68.75,161.3,275.53,84,20,4.08,RU,1589431907
393,Bonavista,48.65,-53.11,274.82,84,78,6.26,CA,1589431908
394,Kama,56.31,54.09,281.24,77,100,4.96,RU,1589431908
395,Martapura,-3.42,114.85,304.15,74,40,2.6,ID,1589431770
396,Port-Cartier,50.03,-66.87,276.15,34,40,8.2,CA,1589431909
397,Lagunillas,10.13,-71.26,300.02,82,78,0.54,VE,1589431910
398,Pacifica,37.61,-122.49,287.59,100,90,2.05,US,1589431910
399,Ţahţā,26.77,31.5,297.15,31,69,3.1,EG,1589431911
400,Santa Maria,-29.68,-53.81,283.29,88,9,0.98,BR,1589431745
401,Port Keats,-14.25,129.55,305.57,34,15,4.25,AU,1589431912
402,Belfast,54.58,-5.93,276.48,80,0,2.1,GB,1589431742
403,Mossendjo,-2.95,12.73,294.3,99,100,0.87,CG,1589431913
404,Mehamn,71.04,27.85,277.15,60,100,4.1,NO,1589431913
405,Codrington,-38.27,141.97,285.52,59,100,2.52,AU,1589431914
406,Kloulklubed,7.04,134.26,302.15,79,75,3.6,PW,1589431914
407,Amursk,50.23,136.9,285.86,60,74,3.03,RU,1589431915
408,Lanzhou,36.06,103.79,293.15,20,24,4.0,CN,1589431916
409,Nurota,40.56,65.69,293.15,49,51,2.1,UZ,1589431916
410,La Asuncion,11.03,-63.86,298.56,85,0,8.5,VE,1589431628
411,Clyde River,70.47,-68.59,270.15,86,90,1.0,CA,1589431917
412,Porto Walter,-8.27,-72.74,295.83,98,50,0.59,BR,1589431865
413,Vestmannaeyjar,63.44,-20.27,281.19,78,100,9.7,IS,1589431918
414,Los Baños,14.17,121.18,308.15,66,75,3.6,PH,1589431919
415,Callaway,30.15,-85.57,295.37,88,1,1.5,US,1589431919
416,Xuanwu,32.07,118.81,302.04,47,40,4.0,CN,1589431919
417,Mount Gambier,-37.83,140.77,286.15,62,90,3.6,AU,1589431920
418,Soyo,-6.13,12.37,298.87,90,79,0.99,AO,1589431920
419,Taltal,-25.4,-70.48,288.07,67,0,1.78,CL,1589431802
420,Port Macquarie,-31.43,152.92,292.04,65,0,1.34,AU,1589431921
421,Mayo,38.89,-76.51,285.37,100,1,1.5,US,1589431922
422,Turukhansk,65.82,87.98,280.15,56,0,3.24,RU,1589431922
423,Boca do Acre,-8.75,-67.4,296.9,86,16,0.76,BR,1589431923
424,Buraidah,26.33,43.98,296.15,35,13,1.5,SA,1589431923
425,Antofagasta,-23.65,-70.4,287.15,87,20,3.6,CL,1589431923
426,Athens,37.98,23.72,295.93,49,0,0.23,GR,1589431800
427,Kalmunai,7.42,81.82,304.14,66,32,2.97,LK,1589431924
428,Proddatūr,14.73,78.55,311.0,26,68,4.05,IN,1589431925
429,Pombas,17.15,-25.02,295.15,68,20,11.8,CV,1589431925
430,Hamilton,39.18,-84.53,285.93,93,90,1.5,US,1589431881
431,São Domingos,-13.4,-46.32,292.82,83,15,1.74,BR,1589431926
432,Manzanillo,20.34,-77.12,297.17,89,26,4.87,CU,1589431926
433,Galle,6.04,80.22,303.44,73,23,4.34,LK,1589431927
434,Bunia,1.57,30.25,292.82,82,100,0.41,CD,1589431927
435,Muroto-misakicho,33.28,134.15,295.15,68,75,4.1,JP,1589431928
436,Bucerías,20.75,-105.33,293.77,69,17,1.89,MX,1589431929
437,Binzhou,37.37,118.02,289.77,87,100,3.37,CN,1589431929
438,Sitka,57.05,-135.33,282.15,87,90,5.7,US,1589431930
439,Claveria,18.61,121.08,305.31,61,58,7.0,PH,1589431930
440,Tuburan,6.64,122.27,305.15,70,20,3.6,PH,1589431930
441,Leshukonskoye,64.9,45.76,275.82,80,100,7.59,RU,1589431931
442,Aswān,24.09,32.91,307.23,12,96,2.29,EG,1589431934
443,Alice Springs,-23.7,133.88,293.15,18,35,5.7,AU,1589431935
444,Alamogordo,32.9,-105.96,295.15,19,1,2.6,US,1589431801
445,Acapulco de Juárez,16.86,-99.89,300.15,83,40,1.82,MX,1589431798
446,Batticaloa,7.71,81.69,303.57,67,23,2.8,LK,1589431936
447,Grindavik,63.84,-22.43,280.15,93,90,8.2,IS,1589431939
448,Ostrovnoy,68.05,39.51,276.57,96,100,3.6,RU,1589431939
449,Ust-Tsilma,65.44,52.15,280.57,66,100,6.37,RU,1589431940
450,Sanghar,26.05,68.95,305.15,59,0,3.1,PK,1589431940
451,Wattegama,6.8,81.48,306.76,55,35,0.65,LK,1589431941
452,Pervomayskoye,43.92,46.71,287.42,58,41,7.11,RU,1589431941
453,Almeirim,-1.52,-52.58,297.05,96,97,1.47,BR,1589431942
454,Mayumba,-3.43,10.66,298.1,89,76,1.54,GA,1589431942
455,Candolim,15.52,73.76,303.15,74,20,3.1,IN,1589431943
456,Camargo,27.67,-105.17,296.29,19,0,4.72,MX,1589431944
457,Keti Bandar,24.14,67.45,303.86,61,37,5.49,PK,1589431944
458,Indianola,41.36,-93.56,285.37,100,90,4.6,US,1589431944
459,Gizo Government Station,-8.1,156.84,299.36,85,98,2.43,SB,1589431945
460,Nova Viçosa,-17.89,-39.37,295.11,88,5,2.06,BR,1589431945
461,Maun,-19.98,23.42,281.15,65,0,2.1,BW,1589431946
462,Denpasar,-8.65,115.22,302.15,89,40,7.7,ID,1589431817
463,Abriaquí,6.63,-76.06,287.15,100,100,0.48,CO,1589431429
464,Beloha,-25.17,45.05,293.6,78,16,3.05,MG,1589431949
465,Porto-Novo,6.5,2.6,300.09,82,78,1.75,BJ,1589431857
466,Port Lincoln,-34.73,135.87,286.88,48,65,1.96,AU,1589431950
467,Balakhta,55.38,91.6,283.34,74,97,8.01,RU,1589431950
468,Rapid Valley,44.06,-103.15,284.26,93,90,1.87,US,1589431951
469,Imbituba,-28.24,-48.67,293.15,77,100,4.6,BR,1589431952
470,Malinovoye Ozero,51.68,79.78,302.75,24,0,1.92,RU,1589431952
471,Stutterheim,-32.57,27.42,290.15,59,0,4.6,ZA,1589431953
472,Narsaq,60.92,-46.05,278.15,86,75,3.1,GL,1589431953
473,Westport,41.14,-73.36,282.15,81,1,1.5,US,1589431850
474,Strai,58.2,7.9,277.15,48,0,1.5,NO,1589431954
475,Nemuro,43.32,145.57,285.15,62,75,8.2,JP,1589431954
476,Sawtell,-30.38,153.1,292.15,63,40,7.2,AU,1589431955
477,Bereda,43.27,-7.54,286.48,99,95,5.36,ES,1589431957
478,Dunedin,-45.87,170.5,284.82,75,99,0.89,NZ,1589431958
479,Ketchikan,55.34,-131.65,284.15,81,75,6.2,US,1589431958
480,Kintinku,-5.88,35.23,292.15,93,40,4.1,TZ,1589431959
481,Bulawayo,-20.15,28.58,285.7,41,0,2.08,ZW,1589431961
482,Soe,-9.86,124.28,299.03,62,36,4.47,ID,1589431961
483,Raudeberg,61.99,5.14,274.26,94,100,1.68,NO,1589431962
484,Bom Conselho,-9.17,-36.68,292.85,100,60,1.59,BR,1589431962
485,Babanka,48.71,30.45,282.35,82,100,8.45,UA,1589431962
486,Zeya,53.75,127.27,282.52,74,100,4.92,RU,1589431963
487,Cockburn Town,21.46,-71.14,299.67,81,89,9.28,TC,1589431867
488,Manado,1.49,124.85,308.15,59,40,3.1,ID,1589431964
489,Chippewa Falls,44.94,-91.39,284.26,86,100,6.33,US,1589431802
490,Great Falls,47.5,-111.3,280.15,56,1,4.1,US,1589431965
491,Te Anau,-45.42,167.72,281.27,83,52,1.82,NZ,1589431966
492,Juneau,58.3,-134.42,291.15,36,75,4.6,US,1589431714
493,Faya,18.39,42.45,295.15,52,8,0.99,SA,1589431968
494,Debre Tabor,11.85,38.02,291.74,40,16,0.52,ET,1589431969
495,Forsytheganj,52.63,29.73,281.23,75,100,1.8,BY,1589431969
496,Kavaratti,10.57,72.64,305.15,70,40,2.1,IN,1589431970
497,Aquiraz,-3.9,-38.39,299.15,83,75,4.6,BR,1589431970
498,Teya,60.38,92.63,282.23,48,13,3.57,RU,1589431971
499,Oodweyne,9.41,45.06,299.56,54,25,2.86,SO,1589431972
500,Sur,22.57,59.53,303.48,49,0,6.24,OM,1589431972
501,Buribay,51.96,58.16,291.0,52,57,3.68,RU,1589431973
502,Areosa,41.72,-8.86,287.59,93,75,3.1,PT,1589431973
503,Peniche,39.36,-9.38,284.82,92,6,4.47,PT,1589431973
504,Bandraboua,-12.7,45.12,301.15,69,40,6.2,YT,1589431974
505,Teluk Nibung,3.0,99.82,305.04,64,89,2.98,ID,1589431974
506,Florø,61.6,5.03,276.15,74,75,3.1,NO,1589431975
507,Porto,41.15,-8.61,287.04,93,75,3.1,PT,1589431946
508,Jutaí,-5.18,-68.9,295.38,93,2,0.49,BR,1589431976
509,Collie,-33.37,116.15,295.37,35,0,2.34,AU,1589431976
510,Seoul,37.57,126.98,298.15,17,99,3.6,KR,1589431693
511,Mmabatho,-25.85,25.63,279.15,50,0,2.6,ZA,1589431977
512,Poum,-20.23,164.02,296.71,64,8,5.84,NC,1589431978
513,Mardin,37.31,40.74,299.15,34,0,2.6,TR,1589431978
514,Airai,-8.93,125.41,295.58,74,68,2.4,TL,1589431979
515,Asău,46.43,26.4,284.26,80,83,2.29,RO,1589431979
516,Camacha,33.08,-16.33,288.15,77,75,9.3,PT,1589431980
517,Ban Dung,17.7,103.26,309.82,47,0,3.6,TH,1589431980
518,Fujin,47.26,132.03,294.0,29,61,7.84,CN,1589431737
519,Ambulu,-8.35,113.61,302.57,68,21,5.01,ID,1589431981
520,Yabrūd,33.97,36.66,291.15,52,97,2.1,SY,1589431982
521,Muros,42.78,-9.06,287.04,82,82,5.36,ES,1589431982
522,Sinnamary,5.38,-52.95,298.69,87,97,4.44,GF,1589431983
523,San Policarpo,12.18,125.51,299.92,89,100,19.39,PH,1589431983
524,Dayong,25.02,118.29,302.15,51,43,3.0,CN,1589431983
525,Encruzilhada,-15.53,-40.91,290.42,95,36,1.07,BR,1589431985
526,Scottsbluff,41.87,-103.67,286.15,93,40,3.6,US,1589431985
527,Ocean City,39.28,-74.57,284.26,81,1,2.41,US,1589431986
528,Esmeraldas,-19.76,-44.31,291.15,93,68,1.5,BR,1589431986
529,Willowmore,-33.29,23.49,278.35,92,0,0.78,ZA,1589431987
530,Vila Franca do Campo,37.72,-25.43,286.15,66,40,4.6,PT,1589431987
531,Coruripe,-10.13,-36.18,298.31,86,2,4.01,BR,1589431988
532,Little Current,45.98,-81.92,275.15,69,1,2.1,CA,1589431988
533,Corrales,35.24,-106.61,293.71,26,0,1.34,US,1589431976
534,Lālmohan,22.34,90.74,305.54,54,0,4.91,BD,1589431989
535,Sittwe,20.15,92.9,304.45,58,78,3.51,MM,1589431904
536,Ivanteyevka,55.97,37.92,283.71,49,51,4.0,RU,1589431990
537,Parrita,9.52,-84.32,295.15,88,40,1.5,CR,1589431876
538,Novobirilyussy,56.95,90.67,279.71,80,100,5.25,RU,1589431991
539,Iqaluit,63.75,-68.51,265.15,78,20,1.0,CA,1589431991
540,Hobyo,5.35,48.53,302.67,66,45,6.01,SO,1589431992
541,Dingcheng,32.13,115.04,295.16,76,100,2.06,CN,1589431992
542,Yantal',56.85,105.25,280.82,48,100,4.29,RU,1589431992
543,Nordby,55.45,8.4,277.15,80,32,3.1,DK,1589431993
544,Saint Simons,31.14,-81.39,295.15,64,1,6.2,US,1589431993
545,São João da Barra,-21.64,-41.05,295.05,85,63,4.26,BR,1589431994
546,Walvis Bay,-22.96,14.51,285.15,76,0,1.5,NA,1589431995
